{
    "country": "Uzbekistan",
    "cities": {
        "Samarkand": [
            {
                "category": "салон",
                "name": "\"PRINCESS\" салон красоты",
                "lat": 39.6814361,
                "lon": 66.9960084,
                "address": "MXJW+HCC, Afrosiyob St, Samarkand, Samarqand Region, Узбекистан",
                "services": "Салон",
                "cost": "Неизвестно",
                "hours": "Open now",
                "phone": "Неизвестно"
            },
            {
                "category": "салон",
                "name": "Beauty Point by Suli Cosmetology",
                "lat": 39.6561428,
                "lon": 66.95435499999999,
                "address": "Mirzo Ulug'bek Ko'chasi 34, 140100, Samarqand, Samarqand viloyati, Узбекистан",
                "services": "Салон",
                "cost": "Неизвестно",
                "hours": "Open now",
                "phone": "Неизвестно"
            },
            {
                "category": "салон",
                "name": "Студия Красоты ЭСМИР",
                "lat": 39.6538712,
                "lon": 66.9352985,
                "address": "Гагарин кўчаси 144, Samarqand, Samarqand viloyati, Узбекистан",
                "services": "Салон",
                "cost": "Неизвестно",
                "hours": "Open now",
                "phone": "Неизвестно"
            },
            {
                "category": "салон",
                "name": "Be Queen beauty gallery",
                "lat": 39.6628508,
                "lon": 66.9328275,
                "address": "Be Queen Beauty Gallery, Mirzo Ulugbek St 140, Samarkand, Самаркандская область, Узбекистан",
                "services": "Салон",
                "cost": "Неизвестно",
                "hours": "Open now",
                "phone": "Неизвестно"
            },
            {
                "category": "салон",
                "name": "Салон Красоты Бонушка",
                "lat": 39.659472,
                "lon": 66.95327309999999,
                "address": "MX53+Q8J, Xuseyn Boyqaro ko'chasi, Samarqand, Samarqand viloyati, Узбекистан",
                "services": "Салон",
                "cost": "Неизвестно",
                "hours": "Open now",
                "phone": "Неизвестно"
            },
            {
                "category": "салон",
                "name": "BrowBAR",
                "lat": 39.6430485,
                "lon": 66.9285282,
                "address": "Panjab, Firdousi Street, Samarkand, Самаркандская область, Узбекистан",
                "services": "Салон",
                "cost": "Неизвестно",
                "hours": "Open now",
                "phone": "Неизвестно"
            },
            {
                "category": "салон",
                "name": "Салон красоты Рухшона",
                "lat": 39.6567821,
                "lon": 66.95346789999999,
                "address": "Улица Абдурахмана Джами Abdurahmon Jomiy,40 Самарканд.ул.Абдурахмана Джами.40, Узбекистан",
                "services": "Салон",
                "cost": "Неизвестно",
                "hours": "Open now",
                "phone": "Неизвестно"
            },
            {
                "category": "салон",
                "name": "Kukla beautyroom",
                "lat": 39.6634025,
                "lon": 66.9322596,
                "address": "MW7J+9W6, Mirzo Ulug'bek Ko'chasi, Samarqand, Samarqand viloyati, Узбекистан",
                "services": "Салон",
                "cost": "Неизвестно",
                "hours": "Open now",
                "phone": "Неизвестно"
            },
            {
                "category": "салон",
                "name": "Gyuna салон красоты, мужская/женская парикмахерская",
                "lat": 39.6525992,
                "lon": 66.961586,
                "address": "улица Бустонсарай, Samarkand, Самаркандская область, Узбекистан",
                "services": "Салон",
                "cost": "Неизвестно",
                "hours": "Open now",
                "phone": "Неизвестно"
            },
            {
                "category": "салон",
                "name": "Selfie студия ногтей/ салон красоты",
                "lat": 39.6560322,
                "lon": 66.9570361,
                "address": "MX44+CR7 Gum, Mirzo Ulugbek St, Samarkand, Samarqand Region, Узбекистан",
                "services": "Салон",
                "cost": "Неизвестно",
                "hours": "Open now",
                "phone": "Неизвестно"
            },
            {
                "category": "салон",
                "name": "Салон красоты Регистон",
                "lat": 39.6558389,
                "lon": 66.9599355,
                "address": "Yusuf Khamadoniy Str. 74, Samarqand, Samarqand viloyati, Узбекистан",
                "services": "Салон",
                "cost": "Неизвестно",
                "hours": "Open now",
                "phone": "Неизвестно"
            },
            {
                "category": "салон",
                "name": "Салон красоты Sisters",
                "lat": 39.6419606,
                "lon": 66.97405359999999,
                "address": "JXRF+QJP, Ulitsa Bakhtiyora Khamidova, Samarkand, Samarqand Region, Узбекистан",
                "services": "Салон",
                "cost": "Неизвестно",
                "hours": "Open now",
                "phone": "Неизвестно"
            },
            {
                "category": "салон",
                "name": "Nelli Beauty Salon",
                "lat": 39.6497642,
                "lon": 66.9533103,
                "address": "Firdavsiy ko'chasi 77A, 140100, Samarqand, Samarqand viloyati, Узбекистан",
                "services": "Салон",
                "cost": "Неизвестно",
                "hours": "Open now",
                "phone": "Неизвестно"
            },
            {
                "category": "салон",
                "name": "Beauty Studio",
                "lat": 39.6762908,
                "lon": 66.93822,
                "address": "MWGQ+G79, Samarqand, Samarqand viloyati, Узбекистан",
                "services": "Салон",
                "cost": "Неизвестно",
                "hours": "Open now",
                "phone": "Неизвестно"
            },
            {
                "category": "салон",
                "name": "Monica Салон Красоты",
                "lat": 39.66769590000001,
                "lon": 66.9262584,
                "address": "Elitnyy Dom, Spitamen-Shokh Ulitsa 100, Samarkand, Samarqand Region, Узбекистан",
                "services": "Салон",
                "cost": "Неизвестно",
                "hours": "Open now",
                "phone": "Неизвестно"
            },
            {
                "category": "салон",
                "name": "HairBoss - лазерная эпиляция в Самарканде",
                "lat": 39.65084090000001,
                "lon": 66.9447116,
                "address": "Мир Саид Барака 40а, 140100, Samarqand, Samarqand viloyati, Узбекистан",
                "services": "Салон",
                "cost": "Неизвестно",
                "hours": "Open now",
                "phone": "Неизвестно"
            },
            {
                "category": "салон",
                "name": "MYATA beauty room",
                "lat": 39.6753613,
                "lon": 66.927183,
                "address": "MWGG+4VV, Samarqand, Samarqand viloyati, Узбекистан",
                "services": "Салон",
                "cost": "Неизвестно",
                "hours": "Open now",
                "phone": "Неизвестно"
            },
            {
                "category": "салон",
                "name": "Салон красоты Gulbahor",
                "lat": 39.6604751,
                "lon": 66.9139927,
                "address": "улица Абу-Бакра Рази, 9, 141500, Samarkand, Samarqand Region, Узбекистан",
                "services": "Салон",
                "cost": "Неизвестно",
                "hours": "Open now",
                "phone": "Неизвестно"
            },
            {
                "category": "салон",
                "name": "Салон красоты Назира.",
                "lat": 39.6020713,
                "lon": 67.09137969999999,
                "address": "J32R+RHC, Самарканд Тайляк, Samarqand, Узбекистан",
                "services": "Салон",
                "cost": "Неизвестно",
                "hours": "Open now",
                "phone": "Неизвестно"
            },
            {
                "category": "салон",
                "name": "\"Shaxzoda\" kelinlar liboslari va go'zallik saloni",
                "lat": 39.6610428,
                "lon": 66.93830249999999,
                "address": "MW6Q+C83, Samarqand, Samarqand viloyati, Узбекистан",
                "services": "Салон",
                "cost": "Неизвестно",
                "hours": "Open now",
                "phone": "Неизвестно"
            },
            {
                "category": "салон",
                "name": "Салон красоты Нигина",
                "lat": 39.6470057,
                "lon": 66.9271291,
                "address": "Amir Temur ko'chasi, Samarqand, Samarqand viloyati, Узбекистан",
                "services": "Салон",
                "cost": "Неизвестно",
                "hours": "Open now",
                "phone": "Неизвестно"
            },
            {
                "category": "салон",
                "name": "Spa & Sauna Komfort",
                "lat": 39.6947414,
                "lon": 66.981715,
                "address": "улица Лочин дом 37, 140100, Samarqand, Samarqand viloyati, Узбекистан",
                "services": "Салон",
                "cost": "Неизвестно",
                "hours": "Open now",
                "phone": "Неизвестно"
            },
            {
                "category": "салон",
                "name": "ALOHA",
                "lat": 39.6424052,
                "lon": 66.9549838,
                "address": "ул. Акбара Отаходжаева 13, Samarkand, Самаркандская область, Узбекистан",
                "services": "Салон",
                "cost": "Неизвестно",
                "hours": "Open now",
                "phone": "Неизвестно"
            },
            {
                "category": "салон",
                "name": "GRACE свадебный салон",
                "lat": 39.6641,
                "lon": 66.93074039999999,
                "address": "Mirzo Ulug'bek Ko'chasi 95, 140100, Samarqand, Samarqand viloyati, Узбекистан",
                "services": "Салон",
                "cost": "Неизвестно",
                "hours": "Open now",
                "phone": "Неизвестно"
            },
            {
                "category": "салон",
                "name": "Noza",
                "lat": 39.6558317,
                "lon": 66.960077,
                "address": "Улица Юсуфа Хамадани 74, 140100, Samarkand, Samarqand Region, Узбекистан",
                "services": "Салон",
                "cost": "Неизвестно",
                "hours": "Open now",
                "phone": "Неизвестно"
            },
            {
                "category": "салон",
                "name": "Anisa Baeva",
                "lat": 39.6470997,
                "lon": 66.950606,
                "address": "Ул. Лутфий, Samarkand, Samarqand Region, Узбекистан",
                "services": "Салон",
                "cost": "Неизвестно",
                "hours": "Open now",
                "phone": "Неизвестно"
            },
            {
                "category": "салон",
                "name": "Ногтевая студия \"Studio Safran\"",
                "lat": 39.670266,
                "lon": 66.9312647,
                "address": "Улица Богишамол 46, 140100, Samarkand, Samarqand Region, Узбекистан",
                "services": "Салон",
                "cost": "Неизвестно",
                "hours": "Open now",
                "phone": "Неизвестно"
            },
            {
                "category": "салон",
                "name": "Sartarosh hona",
                "lat": 39.6803328,
                "lon": 66.98240249999999,
                "address": "MXJJ+5X8, Samarqand, Samarqand viloyati, Узбекистан",
                "services": "Салон",
                "cost": "Неизвестно",
                "hours": "Open now",
                "phone": "Неизвестно"
            },
            {
                "category": "салон",
                "name": "Мужской Салон Красоты",
                "lat": 39.6477066,
                "lon": 66.9918294,
                "address": "JXXR+3PP, Samarqand, Samarqand viloyati, Узбекистан",
                "services": "Салон",
                "cost": "Неизвестно",
                "hours": "Open now",
                "phone": "Неизвестно"
            },
            {
                "category": "салон",
                "name": "Gulchexra Beauty Salon",
                "lat": 39.6520569,
                "lon": 66.93175769999999,
                "address": "MW2J+RPC, Samarqand, Samarqand viloyati, Узбекистан",
                "services": "Салон",
                "cost": "Неизвестно",
                "hours": "Open now",
                "phone": "Неизвестно"
            },
            {
                "category": "салон",
                "name": "REAMIR",
                "lat": 39.6565824,
                "lon": 66.9606132,
                "address": "MX46+J7J, Samarqand, Samarqand viloyati, Узбекистан",
                "services": "Салон",
                "cost": "Неизвестно",
                "hours": "Open now",
                "phone": "Неизвестно"
            },
            {
                "category": "салон",
                "name": "Салон Красоты",
                "lat": 39.6749802,
                "lon": 66.9410773,
                "address": "MWFR+XCW, Ulitsa Al' Khorezmi, Samarkand, Samarqand Region, Узбекистан",
                "services": "Салон",
                "cost": "Неизвестно",
                "hours": "Open now",
                "phone": "Неизвестно"
            },
            {
                "category": "салон",
                "name": "Viva студия красоты",
                "lat": 39.6537849,
                "lon": 66.9226823,
                "address": "Буюк Ипак Йули кучаси 50кучаси, Samarqand, Samarqand viloyati, Узбекистан",
                "services": "Салон",
                "cost": "Неизвестно",
                "hours": "Open now",
                "phone": "Неизвестно"
            },
            {
                "category": "салон",
                "name": "Milana (gozallik saloni) салон красоты",
                "lat": 39.6498136,
                "lon": 66.9526726,
                "address": "JXX3+W34, Samarqand, Samarqand viloyati, Узбекистан",
                "services": "Салон",
                "cost": "Неизвестно",
                "hours": "Open now",
                "phone": "Неизвестно"
            },
            {
                "category": "салон",
                "name": "BARBERSHOP BOXA",
                "lat": 39.6514812,
                "lon": 66.9994158,
                "address": "M222+F8X, Sadriddin Ayniy ko'chasi, Samarqand, Samarqand viloyati, Узбекистан",
                "services": "Салон",
                "cost": "Неизвестно",
                "hours": "Open now",
                "phone": "Неизвестно"
            },
            {
                "category": "салон",
                "name": "Romanovna Nail STUDIO",
                "lat": 39.6445009,
                "lon": 66.95442299999999,
                "address": "Ул. А. Джами 42, 141001, Samarqand, Samarqand viloyati, Узбекистан",
                "services": "Салон",
                "cost": "Неизвестно",
                "hours": "Open now",
                "phone": "Неизвестно"
            },
            {
                "category": "салон",
                "name": "Азиза салон красоты",
                "lat": 39.6385616,
                "lon": 67.0251559,
                "address": "J2QG+C28, улица Пенджикент, Samarqand, Samarqand viloyati, Узбекистан",
                "services": "Салон",
                "cost": "Неизвестно",
                "hours": "Open now",
                "phone": "Неизвестно"
            },
            {
                "category": "салон",
                "name": "Barbershop \"La Black\"",
                "lat": 39.659956,
                "lon": 66.9059674,
                "address": "MW54+X9P, Samarqand, Samarqand viloyati, Узбекистан",
                "services": "Салон",
                "cost": "Неизвестно",
                "hours": "Open now",
                "phone": "Неизвестно"
            },
            {
                "category": "салон",
                "name": "Dilya Beauty salon",
                "lat": 39.7136556,
                "lon": 66.9358397,
                "address": "PW7P+F88 Корасув 146, Samarkand, Самаркандская область, Узбекистан",
                "services": "Салон",
                "cost": "Неизвестно",
                "hours": "Open now",
                "phone": "Неизвестно"
            },
            {
                "category": "салон",
                "name": "DiliMah SPA & Sauna",
                "lat": 39.6624089,
                "lon": 66.9341444,
                "address": "Mirzo Ulug'bek Ko'chasi 79, Samarqand, Samarqand viloyati, Узбекистан",
                "services": "Салон",
                "cost": "Неизвестно",
                "hours": "Open now",
                "phone": "Неизвестно"
            },
            {
                "category": "салон",
                "name": "Ancient Samarkand Bath \"Hammomi Dovudi\"",
                "lat": 39.657997,
                "lon": 66.9873073,
                "address": "Худжум 19, 140100, Samarqand, Узбекистан",
                "services": "Салон",
                "cost": "Неизвестно",
                "hours": "Open now",
                "phone": "Неизвестно"
            },
            {
                "category": "салон",
                "name": "Салон красата",
                "lat": 39.6460645,
                "lon": 66.9243687,
                "address": "JWWF+CPC Korzinka+ Atlas mall, Samarkand, Samarqand Region, Узбекистан",
                "services": "Салон",
                "cost": "Неизвестно",
                "hours": "Open now",
                "phone": "Неизвестно"
            },
            {
                "category": "салон",
                "name": "ZARA",
                "lat": 39.655519,
                "lon": 66.9096747,
                "address": "MW45+6V3, улица Али Кушчи, Samarqand, Samarqand viloyati, Узбекистан",
                "services": "Салон",
                "cost": "Неизвестно",
                "hours": "Open now",
                "phone": "Неизвестно"
            },
            {
                "category": "салон",
                "name": "Салон красоты Гавхар.",
                "lat": 39.6585753,
                "lon": 67.0213878,
                "address": "M25C+CH, Samarqand, Samarqand viloyati, Узбекистан",
                "services": "Салон",
                "cost": "Неизвестно",
                "hours": "Open now",
                "phone": "Неизвестно"
            },
            {
                "category": "салон",
                "name": "Massaj Samarkand Aura",
                "lat": 39.6464177,
                "lon": 66.9289481,
                "address": "149 А, Amir Temur St, Samarkand, Samarqand Region, Узбекистан",
                "services": "Салон",
                "cost": "Неизвестно",
                "hours": "Open now",
                "phone": "Неизвестно"
            },
            {
                "category": "салон",
                "name": "Salon faya",
                "lat": 39.6971827,
                "lon": 67.0975065,
                "address": "M3WX+V26, Жомбой, Samarqand viloyati, Узбекистан",
                "services": "Салон",
                "cost": "Неизвестно",
                "hours": "Open now",
                "phone": "Неизвестно"
            },
            {
                "category": "салон",
                "name": "Beauty Salom",
                "lat": 39.6844954,
                "lon": 66.9826913,
                "address": "MXMM+Q3W, Samarqand, Samarqand viloyati, Узбекистан",
                "services": "Салон",
                "cost": "Неизвестно",
                "hours": "Open now",
                "phone": "Неизвестно"
            },
            {
                "category": "салон",
                "name": "beauty salon BEYONCE",
                "lat": 39.6553389,
                "lon": 66.9152962,
                "address": "MW48+44M, улица Али Кушчи, Samarqand, Samarqand viloyati, Узбекистан",
                "services": "Салон",
                "cost": "Неизвестно",
                "hours": "Open now",
                "phone": "Неизвестно"
            },
            {
                "category": "салон",
                "name": "EPIL STUDIO Лазерная эпиляция в Самарканде",
                "lat": 39.6460084,
                "lon": 66.92407419999999,
                "address": "Атлас торговый центр, 131 Б, Buyuk Ipak Yuli street, Samarkand, Самаркандская область, Узбекистан",
                "services": "Салон",
                "cost": "Неизвестно",
                "hours": "Open now",
                "phone": "Неизвестно"
            },
            {
                "category": "салон",
                "name": "Салон красоты Узбечка",
                "lat": 39.6550949,
                "lon": 67.0007622,
                "address": "M242+28M, Samarqand, Samarqand viloyati, Узбекистан",
                "services": "Салон",
                "cost": "Неизвестно",
                "hours": "Open now",
                "phone": "Неизвестно"
            },
            {
                "category": "салон",
                "name": "Лазерная эпиляция в Ташкенте | HAIRBOSS",
                "lat": 41.2954183,
                "lon": 69.2797914,
                "address": "Said Baraka ko'chasi 14, 100090, Тоshkent, Toshkent, Узбекистан",
                "services": "Салон",
                "cost": "Неизвестно",
                "hours": "Open now",
                "phone": "Неизвестно"
            },
            {
                "category": "салон",
                "name": "Салон красоты Zilola",
                "lat": 39.6598102,
                "lon": 66.9286186,
                "address": "MW5H+WCP, Улица Гульзар, Samarqand, Samarqand viloyati, Узбекистан",
                "services": "Салон",
                "cost": "Неизвестно",
                "hours": "Open now",
                "phone": "Неизвестно"
            },
            {
                "category": "салон",
                "name": "Relax spa&sauna",
                "lat": 39.6571598,
                "lon": 66.92787129999999,
                "address": "Город, ул.Академика Павлова дом 29, Samarkand, Узбекистан",
                "services": "Салон",
                "cost": "Неизвестно",
                "hours": "Open now",
                "phone": "Неизвестно"
            },
            {
                "category": "салон",
                "name": "Go'zallik saloni Shukrona/Салон красоты Шукрона",
                "lat": 39.6968875,
                "lon": 66.8749201,
                "address": "MVWF+QW5 Yqori Qaynama, Diydor ko'chasi, Samarkand, Самаркандская область, Узбекистан",
                "services": "Салон",
                "cost": "Неизвестно",
                "hours": "Open now",
                "phone": "Неизвестно"
            },
            {
                "category": "салон",
                "name": "Xanifa wedding salon manicure",
                "lat": 39.6410214,
                "lon": 66.9586336,
                "address": "JXR5+G87, Samarqand, Samarqand viloyati, Узбекистан",
                "services": "Салон",
                "cost": "Неизвестно",
                "hours": "Open now",
                "phone": "Неизвестно"
            },
            {
                "category": "салон",
                "name": "Салон Красоты Bianca",
                "lat": 39.67661710000001,
                "lon": 66.9359186,
                "address": "Багдадская 13, 140101, Samarkand, Samarqand Region, Узбекистан",
                "services": "Салон",
                "cost": "Неизвестно",
                "hours": "Open now",
                "phone": "Неизвестно"
            },
            {
                "category": "салон",
                "name": "Массаж Самарканд - лечебный центр MIR",
                "lat": 39.64687,
                "lon": 66.9355685,
                "address": "Amir Temur ko'chasi 103б, Samarqand, Samarqand viloyati, Узбекистан",
                "services": "Салон",
                "cost": "Неизвестно",
                "hours": "Open now",
                "phone": "Неизвестно"
            },
            {
                "category": "салон",
                "name": "RE.BARBER",
                "lat": 39.653313,
                "lon": 66.9352627,
                "address": "Гагарин кўчаси 146, Samarqand, Samarqand viloyati, Узбекистан",
                "services": "Салон",
                "cost": "Неизвестно",
                "hours": "Open now",
                "phone": "Неизвестно"
            },
            {
                "category": "салон",
                "name": "Салон красоты Shanel",
                "lat": 39.6723573,
                "lon": 66.8512712,
                "address": "Chinonod, 24, 140100, Samarkand, Узбекистан",
                "services": "Салон",
                "cost": "Неизвестно",
                "hours": "Open now",
                "phone": "Неизвестно"
            },
            {
                "category": "салон",
                "name": "Империя Красоты Go'zallik imperiyasi Empire of Beauty",
                "lat": 39.6524722,
                "lon": 66.96160979999999,
                "address": "MX26+XMR, Samarqand, Samarqand viloyati, Узбекистан",
                "services": "Салон",
                "cost": "Неизвестно",
                "hours": "Open now",
                "phone": "Неизвестно"
            },
            {
                "category": "спа",
                "name": "KLASSIK ELITE SPA & SAUNA Samarkand",
                "lat": 39.6489611,
                "lon": 66.95670849999999,
                "address": "A.Jomiy st #65 Samarkand city, 703000, Узбекистан",
                "services": "Спа",
                "cost": "Неизвестно",
                "hours": "Open now",
                "phone": "Неизвестно"
            },
            {
                "category": "спа",
                "name": "Marokand Spa",
                "lat": 39.6834539,
                "lon": 66.9843621,
                "address": "Вахида, Вохид Абдуллаев кўчаси 17, Samarqand, Samarqand viloyati, Узбекистан",
                "services": "Спа",
                "cost": "Неизвестно",
                "hours": "Open now",
                "phone": "Неизвестно"
            },
            {
                "category": "спа",
                "name": "Thai Spa Samarqand",
                "lat": 39.6438908,
                "lon": 66.9400874,
                "address": "Firdavsiy ko'chasi 81, Samarqand, Samarqand viloyati, Узбекистан",
                "services": "Спа",
                "cost": "Неизвестно",
                "hours": "Open now",
                "phone": "Неизвестно"
            },
            {
                "category": "спа",
                "name": "DiliMah SPA & Sauna",
                "lat": 39.6624089,
                "lon": 66.9341444,
                "address": "Mirzo Ulug'bek Ko'chasi 79, Samarqand, Samarqand viloyati, Узбекистан",
                "services": "Спа",
                "cost": "Неизвестно",
                "hours": "Open now",
                "phone": "Неизвестно"
            },
            {
                "category": "спа",
                "name": "Spa & Sauna Komfort",
                "lat": 39.6947414,
                "lon": 66.981715,
                "address": "улица Лочин дом 37, 140100, Samarqand, Samarqand viloyati, Узбекистан",
                "services": "Спа",
                "cost": "Неизвестно",
                "hours": "Open now",
                "phone": "Неизвестно"
            },
            {
                "category": "спа",
                "name": "SPA STUDIO BALANCE",
                "lat": 39.6820186,
                "lon": 66.932992,
                "address": "Рудаки, 77, Samarkand, Samarqand Region, Узбекистан",
                "services": "Спа",
                "cost": "Неизвестно",
                "hours": "Open now",
                "phone": "Неизвестно"
            },
            {
                "category": "спа",
                "name": "Spa salon",
                "lat": 39.6271131,
                "lon": 66.9749672,
                "address": "JXGF+RXG, Samarqand, Samarqand viloyati, Узбекистан",
                "services": "Спа",
                "cost": "Неизвестно",
                "hours": "Open now",
                "phone": "Неизвестно"
            },
            {
                "category": "спа",
                "name": "OASIS SPA",
                "lat": 39.6580795,
                "lon": 66.97141549999999,
                "address": "Imom Al-Bukhoriy Str. 185, 140100, Samarqand, Samarqand viloyati, Узбекистан",
                "services": "Спа",
                "cost": "Неизвестно",
                "hours": "Open now",
                "phone": "Неизвестно"
            },
            {
                "category": "спа",
                "name": "Marokand Spa Hotel",
                "lat": 39.6832725,
                "lon": 66.98449219999999,
                "address": "Вохид Абдуллаев кўчаси 17, 140100, Samarqand, Samarqand viloyati, Узбекистан",
                "services": "Спа",
                "cost": "Неизвестно",
                "hours": "Open now",
                "phone": "Неизвестно"
            },
            {
                "category": "спа",
                "name": "Ancient Samarkand Bath \"Hammomi Dovudi\"",
                "lat": 39.657997,
                "lon": 66.9873073,
                "address": "Худжум 19, 140100, Samarqand, Узбекистан",
                "services": "Спа",
                "cost": "Неизвестно",
                "hours": "Open now",
                "phone": "Неизвестно"
            },
            {
                "category": "спа",
                "name": "Relax spa&sauna",
                "lat": 39.6571598,
                "lon": 66.92787129999999,
                "address": "Город, ул.Академика Павлова дом 29, Samarkand, Узбекистан",
                "services": "Спа",
                "cost": "Неизвестно",
                "hours": "Open now",
                "phone": "Неизвестно"
            },
            {
                "category": "спа",
                "name": "Massaj Samarkand Aura",
                "lat": 39.6464177,
                "lon": 66.9289481,
                "address": "149 А, Amir Temur St, Samarkand, Samarqand Region, Узбекистан",
                "services": "Спа",
                "cost": "Неизвестно",
                "hours": "Open now",
                "phone": "Неизвестно"
            },
            {
                "category": "спа",
                "name": "Eleven Spa",
                "lat": 39.6460708,
                "lon": 66.923597,
                "address": "Amir Temur ko'chasi 224, Samarqand, Samarqand viloyati, Узбекистан",
                "services": "Спа",
                "cost": "Неизвестно",
                "hours": "Open now",
                "phone": "Неизвестно"
            },
            {
                "category": "спа",
                "name": "DiliMah Premium Luxury | Hotel",
                "lat": 39.6624026,
                "lon": 66.9341845,
                "address": "Mirzo Ulug'bek Ko'chasi 79A, Samarqand, Samarqand viloyati, Узбекистан",
                "services": "Спа",
                "cost": "Неизвестно",
                "hours": "Open now",
                "phone": "Неизвестно"
            },
            {
                "category": "спа",
                "name": "Deluxe Spa Sauna",
                "lat": 39.6482864,
                "lon": 66.9568714,
                "address": "Abdurahmon Jomiy ko'chasi 98, Samarqand, Samarqand viloyati, Узбекистан",
                "services": "Спа",
                "cost": "Неизвестно",
                "hours": "Open now",
                "phone": "Неизвестно"
            },
            {
                "category": "спа",
                "name": "1+1 Oyoq Hammomi Markazi",
                "lat": 39.6531747,
                "lon": 66.974468,
                "address": "Registon ko'chasi 7, Samarqand, Samarqand viloyati, Узбекистан",
                "services": "Спа",
                "cost": "Неизвестно",
                "hours": "Closed",
                "phone": "Неизвестно"
            },
            {
                "category": "спа",
                "name": "Массаж Самарканд - лечебный центр MIR",
                "lat": 39.64687,
                "lon": 66.9355685,
                "address": "Amir Temur ko'chasi 103б, Samarqand, Samarqand viloyati, Узбекистан",
                "services": "Спа",
                "cost": "Неизвестно",
                "hours": "Open now",
                "phone": "Неизвестно"
            },
            {
                "category": "спа",
                "name": "KOHINUR PLAZA | SPA | Hotel Samarkand",
                "lat": 39.6662208,
                "lon": 66.9759112,
                "address": "Rudakiy ko'chasi 217, 140105, Samarqand, Samarqand viloyati, Узбекистан",
                "services": "Спа",
                "cost": "Неизвестно",
                "hours": "Open now",
                "phone": "Неизвестно"
            },
            {
                "category": "спа",
                "name": "Gulobod Hamom & Sauna",
                "lat": 39.5811345,
                "lon": 66.9610256,
                "address": "Гулобод махала, Samarkand, Узбекистан",
                "services": "Спа",
                "cost": "Неизвестно",
                "hours": "Open now",
                "phone": "Неизвестно"
            },
            {
                "category": "спа",
                "name": "Nephrite Spa",
                "lat": 39.6598315,
                "lon": 67.0586978,
                "address": "Samarkand, Самаркандская область, Узбекистан",
                "services": "Спа",
                "cost": "Неизвестно",
                "hours": "Open now",
                "phone": "Неизвестно"
            },
            {
                "category": "спа",
                "name": "Современный бассейн Aqua Spa",
                "lat": 39.7018833,
                "lon": 66.95228700000001,
                "address": "PX22+QW3, Samarqand, Samarqand viloyati, Узбекистан",
                "services": "Спа",
                "cost": "Неизвестно",
                "hours": "Open now",
                "phone": "Неизвестно"
            },
            {
                "category": "спа",
                "name": "Сауна АРИА",
                "lat": 39.701229,
                "lon": 67.0751355,
                "address": "P32G+G3H, Жомбой, Samarqand viloyati, Узбекистан",
                "services": "Спа",
                "cost": "Неизвестно",
                "hours": "Open now",
                "phone": "Неизвестно"
            },
            {
                "category": "спа",
                "name": "PAR HOUSE SAUNA",
                "lat": 39.6396941,
                "lon": 66.9240456,
                "address": "JWQF+VJ, Samarqand, Samarqand viloyati, Узбекистан",
                "services": "Спа",
                "cost": "Неизвестно",
                "hours": "Open now",
                "phone": "Неизвестно"
            },
            {
                "category": "спа",
                "name": "Beauty Point by Suli Cosmetology",
                "lat": 39.6561428,
                "lon": 66.95435499999999,
                "address": "Mirzo Ulug'bek Ko'chasi 34, 140100, Samarqand, Samarqand viloyati, Узбекистан",
                "services": "Спа",
                "cost": "Неизвестно",
                "hours": "Open now",
                "phone": "Неизвестно"
            },
            {
                "category": "спа",
                "name": "Luxesauna SPA Massaj",
                "lat": 39.694279,
                "lon": 66.98345499999999,
                "address": "MXVM+P98, Unnamed Road, Samarkand, Узбекистан",
                "services": "Спа",
                "cost": "Неизвестно",
                "hours": "Closed",
                "phone": "Неизвестно"
            },
            {
                "category": "спа",
                "name": "Spa salon Sagdiana",
                "lat": 39.6569702,
                "lon": 66.9101819,
                "address": "Sagdiana 9A, Samarkand, Узбекистан",
                "services": "Спа",
                "cost": "Неизвестно",
                "hours": "Open now",
                "phone": "Неизвестно"
            },
            {
                "category": "спа",
                "name": "AXMAT Spa salon",
                "lat": 39.6499772,
                "lon": 66.9315652,
                "address": "JWXJ+XJW, Ulitsa Choʻlpon, Samarqand, Samarqand viloyati, Узбекистан",
                "services": "Спа",
                "cost": "Неизвестно",
                "hours": "Open now",
                "phone": "Неизвестно"
            },
            {
                "category": "спа",
                "name": "Happy Baby Spa Massaj",
                "lat": 39.6817724,
                "lon": 66.92894679999999,
                "address": "Самаркандская область, город, Rudakiy St 7, Samarkand, Узбекистан",
                "services": "Спа",
                "cost": "Неизвестно",
                "hours": "Open now",
                "phone": "Неизвестно"
            },
            {
                "category": "спа",
                "name": "Hilton Samarkand Regency",
                "lat": 39.6596955,
                "lon": 67.05930769999999,
                "address": "Konigil Massif, 140319, Samarqand, Samarqand viloyati, Узбекистан",
                "services": "Спа",
                "cost": "Неизвестно",
                "hours": "Open now",
                "phone": "Неизвестно"
            },
            {
                "category": "спа",
                "name": "\"Harmony\" baby spa",
                "lat": 39.6673292,
                "lon": 66.91923799999999,
                "address": "MW89+WMQ, ул. Гафура Каримова, Samarkand, Самаркандская область, Узбекистан",
                "services": "Спа",
                "cost": "Неизвестно",
                "hours": "Open now",
                "phone": "Неизвестно"
            },
            {
                "category": "спа",
                "name": "Crystal Dacha",
                "lat": 39.7237237,
                "lon": 66.9630105,
                "address": "Самаркандская область, Акдарьинский район, городской посёлок Ширин, 140100, Samarkand, Samarqand Region, Узбекистан",
                "services": "Спа",
                "cost": "Неизвестно",
                "hours": "Open now",
                "phone": "Неизвестно"
            },
            {
                "category": "спа",
                "name": "SAMARIA HOTEL AND SPA",
                "lat": 39.6598338,
                "lon": 66.9706446,
                "address": "Даҳбед йўли 168, 140100, Samarqand, Samarqand viloyati, Узбекистан",
                "services": "Спа",
                "cost": "Неизвестно",
                "hours": "Open now",
                "phone": "Неизвестно"
            },
            {
                "category": "спа",
                "name": "Оздравительный массаж. Точный. Жесткий. Обычный. Классический.",
                "lat": 39.667841,
                "lon": 66.9260582,
                "address": "Spitamen shoh 100 19, Samarkand, Самаркандская область, Узбекистан",
                "services": "Спа",
                "cost": "Неизвестно",
                "hours": "Open now",
                "phone": "Неизвестно"
            },
            {
                "category": "спа",
                "name": "Wellness Park Hotel Bactria",
                "lat": 39.6535625,
                "lon": 67.0659375,
                "address": "Samarkand, Самаркандская область, Узбекистан",
                "services": "Спа",
                "cost": "Неизвестно",
                "hours": "Open now",
                "phone": "Неизвестно"
            },
            {
                "category": "спа",
                "name": "Iranian Sayid Hammam",
                "lat": 39.644987,
                "lon": 66.9235054,
                "address": "JWVF+R9R, Samarqand, Samarqand viloyati, Узбекистан",
                "services": "Спа",
                "cost": "Неизвестно",
                "hours": "Open now",
                "phone": "Неизвестно"
            },
            {
                "category": "спа",
                "name": "M.S.A.WOMENS.MASSAGE",
                "lat": 39.68270680000001,
                "lon": 66.92989349999999,
                "address": "140100, Samarkand, Samarqand Region, Узбекистан",
                "services": "Спа",
                "cost": "Неизвестно",
                "hours": "Open now",
                "phone": "Неизвестно"
            },
            {
                "category": "спа",
                "name": "Bolalar Massaji - Детский массаж",
                "lat": 39.6875887,
                "lon": 66.8921944,
                "address": "MVPV+MMJ, Samarqand, Samarqand viloyati, Узбекистан",
                "services": "Спа",
                "cost": "Неизвестно",
                "hours": "Open now",
                "phone": "Неизвестно"
            },
            {
                "category": "спа",
                "name": "Begzod_719",
                "lat": 39.6150339,
                "lon": 66.9649062,
                "address": "JX88+23P, Samarqand, Samarqand viloyati, Узбекистан",
                "services": "Спа",
                "cost": "Неизвестно",
                "hours": "Open now",
                "phone": "Неизвестно"
            },
            {
                "category": "спа",
                "name": "HAYAT PLAZA HOTEL & SPA",
                "lat": 39.6489178,
                "lon": 66.9988316,
                "address": "улица Садриддин Айни, город 53, 140100, Samarkand, Узбекистан",
                "services": "Спа",
                "cost": "Неизвестно",
                "hours": "Open now",
                "phone": "Неизвестно"
            },
            {
                "category": "спа",
                "name": "Baby_aqua_massage детский массаж",
                "lat": 39.6774141,
                "lon": 66.9451965,
                "address": "Rudakiy ko'chasi 179, Samarqand, Samarqand viloyati, Узбекистан",
                "services": "Спа",
                "cost": "Неизвестно",
                "hours": "Open now",
                "phone": "Неизвестно"
            },
            {
                "category": "спа",
                "name": "Silk Road by Minyoun",
                "lat": 39.6576875,
                "lon": 67.0675625,
                "address": "Samarkand, Самаркандская область, Узбекистан",
                "services": "Спа",
                "cost": "Неизвестно",
                "hours": "Open now",
                "phone": "Неизвестно"
            },
            {
                "category": "спа",
                "name": "POLAR BEAR",
                "lat": 39.6591205,
                "lon": 66.9474625,
                "address": "MW5W+MQ5, улица Давлатабад, Samarqand, Samarqand viloyati, Узбекистан",
                "services": "Спа",
                "cost": "Неизвестно",
                "hours": "Open now",
                "phone": "Неизвестно"
            },
            {
                "category": "спа",
                "name": "Hilton Garden Inn Samarkand",
                "lat": 39.6735034,
                "lon": 66.96694169999999,
                "address": "Даҳбед йўли 2, 140130, Samarqand, Samarqand viloyati, Узбекистан",
                "services": "Спа",
                "cost": "Неизвестно",
                "hours": "Open now",
                "phone": "Неизвестно"
            },
            {
                "category": "спа",
                "name": "Be Queen beauty gallery",
                "lat": 39.6628508,
                "lon": 66.9328275,
                "address": "Be Queen Beauty Gallery, Mirzo Ulugbek St 140, Samarkand, Самаркандская область, Узбекистан",
                "services": "Спа",
                "cost": "Неизвестно",
                "hours": "Open now",
                "phone": "Неизвестно"
            },
            {
                "category": "спа",
                "name": "Xammom Juma",
                "lat": 39.71055,
                "lon": 66.6702856,
                "address": "PM6C+64P, Juma, Samarqand viloyati, Узбекистан",
                "services": "Спа",
                "cost": "Неизвестно",
                "hours": "Open now",
                "phone": "Неизвестно"
            },
            {
                "category": "спа",
                "name": "Khan Hotel Samarkand",
                "lat": 39.661124,
                "lon": 66.9873604,
                "address": "48 Usto Umar, Djurakulov St, 140100, Samarkand, Samarqand Region, Узбекистан",
                "services": "Спа",
                "cost": "Неизвестно",
                "hours": "Open now",
                "phone": "Неизвестно"
            },
            {
                "category": "спа",
                "name": "Hotel Sultan Palace",
                "lat": 39.6757004,
                "lon": 67.01755709999999,
                "address": "M2G9+72, Samarqand, Samarqand viloyati, Узбекистан",
                "services": "Спа",
                "cost": "Неизвестно",
                "hours": "Open now",
                "phone": "Неизвестно"
            },
            {
                "category": "спа",
                "name": "Begzod 719",
                "lat": 39.6144581,
                "lon": 66.96502029999999,
                "address": "JX77+QXC, Samarqand, Samarqand viloyati, Узбекистан",
                "services": "Спа",
                "cost": "Неизвестно",
                "hours": "Open now",
                "phone": "Неизвестно"
            },
            {
                "category": "йога",
                "name": "«New Energy» йога-центр",
                "lat": 39.67527,
                "lon": 66.94345849999999,
                "address": "Shota Rustaveli St 12, Samarkand, Samarqand Region, Узбекистан",
                "services": "Йога",
                "cost": "Неизвестно",
                "hours": "Open now",
                "phone": "Неизвестно"
            },
            {
                "category": "йога",
                "name": "Студия Лотос",
                "lat": 39.6424922,
                "lon": 66.9466667,
                "address": "Оптовик на Узбекистанской Samarkand, Ул. Узбекистанская 65. Ориентир, 140100, Samarkand, Samarqand Region, Узбекистан",
                "services": "Йога",
                "cost": "Неизвестно",
                "hours": "Open now",
                "phone": "Неизвестно"
            },
            {
                "category": "маникюрный",
                "name": "Romanovna Nail STUDIO",
                "lat": 39.6445009,
                "lon": 66.95442299999999,
                "address": "Ул. А. Джами 42, 141001, Samarqand, Samarqand viloyati, Узбекистан",
                "services": "Маникюрный",
                "cost": "Неизвестно",
                "hours": "Open now",
                "phone": "Неизвестно"
            },
            {
                "category": "маникюрный",
                "name": "Beauty Point by Suli Cosmetology",
                "lat": 39.6561428,
                "lon": 66.95435499999999,
                "address": "Mirzo Ulug'bek Ko'chasi 34, 140100, Samarqand, Samarqand viloyati, Узбекистан",
                "services": "Маникюрный",
                "cost": "Неизвестно",
                "hours": "Open now",
                "phone": "Неизвестно"
            },
            {
                "category": "маникюрный",
                "name": "Be Queen beauty gallery",
                "lat": 39.6628508,
                "lon": 66.9328275,
                "address": "Be Queen Beauty Gallery, Mirzo Ulugbek St 140, Samarkand, Самаркандская область, Узбекистан",
                "services": "Маникюрный",
                "cost": "Неизвестно",
                "hours": "Open now",
                "phone": "Неизвестно"
            },
            {
                "category": "маникюрный",
                "name": "\"PRINCESS\" салон красоты",
                "lat": 39.6814361,
                "lon": 66.9960084,
                "address": "MXJW+HCC, Afrosiyob St, Samarkand, Samarqand Region, Узбекистан",
                "services": "Маникюрный",
                "cost": "Неизвестно",
                "hours": "Open now",
                "phone": "Неизвестно"
            },
            {
                "category": "маникюрный",
                "name": "BrowBAR",
                "lat": 39.6430485,
                "lon": 66.9285282,
                "address": "Panjab, Firdousi Street, Samarkand, Самаркандская область, Узбекистан",
                "services": "Маникюрный",
                "cost": "Неизвестно",
                "hours": "Open now",
                "phone": "Неизвестно"
            },
            {
                "category": "маникюрный",
                "name": "Ногтевая студия \"Studio Safran\"",
                "lat": 39.670266,
                "lon": 66.9312647,
                "address": "Улица Богишамол 46, 140100, Samarkand, Samarqand Region, Узбекистан",
                "services": "Маникюрный",
                "cost": "Неизвестно",
                "hours": "Open now",
                "phone": "Неизвестно"
            },
            {
                "category": "маникюрный",
                "name": "Selfie студия ногтей/ салон красоты",
                "lat": 39.6560322,
                "lon": 66.9570361,
                "address": "MX44+CR7 Gum, Mirzo Ulugbek St, Samarkand, Samarqand Region, Узбекистан",
                "services": "Маникюрный",
                "cost": "Неизвестно",
                "hours": "Open now",
                "phone": "Неизвестно"
            },
            {
                "category": "маникюрный",
                "name": "Camilla the nails studio Samarkand",
                "lat": 39.654149,
                "lon": 66.9230851,
                "address": "Буюк Ипак Йули кучаси 46а, 100001, Samarqand, Samarqand viloyati, Узбекистан",
                "services": "Маникюрный",
                "cost": "Неизвестно",
                "hours": "Open now",
                "phone": "Неизвестно"
            },
            {
                "category": "маникюрный",
                "name": "МаникюР и педикюР САМАРКАНД",
                "lat": 39.7278044,
                "lon": 66.9104059,
                "address": "Samarkand, Samarqand Region, Узбекистан",
                "services": "Маникюрный",
                "cost": "Неизвестно",
                "hours": "Open now",
                "phone": "Неизвестно"
            },
            {
                "category": "маникюрный",
                "name": "Кабинет маникюра и педикюра",
                "lat": 39.734261,
                "lon": 66.90710000000001,
                "address": "PWM4+PR, Samarqand, Samarqand viloyati, Узбекистан",
                "services": "Маникюрный",
                "cost": "Неизвестно",
                "hours": "Open now",
                "phone": "Неизвестно"
            },
            {
                "category": "маникюрный",
                "name": "Nelli Beauty Salon",
                "lat": 39.6497642,
                "lon": 66.9533103,
                "address": "Firdavsiy ko'chasi 77A, 140100, Samarqand, Samarqand viloyati, Узбекистан",
                "services": "Маникюрный",
                "cost": "Неизвестно",
                "hours": "Open now",
                "phone": "Неизвестно"
            },
            {
                "category": "маникюрный",
                "name": "Nilufar salon",
                "lat": 39.6003084,
                "lon": 67.0908534,
                "address": "J32R+66J, Samarqand, Samarqand viloyati, Узбекистан",
                "services": "Маникюрный",
                "cost": "Неизвестно",
                "hours": "Open now",
                "phone": "Неизвестно"
            },
            {
                "category": "маникюрный",
                "name": "Студия Красоты ЭСМИР",
                "lat": 39.6538712,
                "lon": 66.9352985,
                "address": "Гагарин кўчаси 144, Samarqand, Samarqand viloyati, Узбекистан",
                "services": "Маникюрный",
                "cost": "Неизвестно",
                "hours": "Open now",
                "phone": "Неизвестно"
            },
            {
                "category": "маникюрный",
                "name": "Салон красоты Рухшона",
                "lat": 39.6567821,
                "lon": 66.95346789999999,
                "address": "Улица Абдурахмана Джами Abdurahmon Jomiy,40 Самарканд.ул.Абдурахмана Джами.40, Узбекистан",
                "services": "Маникюрный",
                "cost": "Неизвестно",
                "hours": "Open now",
                "phone": "Неизвестно"
            },
            {
                "category": "маникюрный",
                "name": "Салон красоты Регистон",
                "lat": 39.6558389,
                "lon": 66.9599355,
                "address": "Yusuf Khamadoniy Str. 74, Samarqand, Samarqand viloyati, Узбекистан",
                "services": "Маникюрный",
                "cost": "Неизвестно",
                "hours": "Open now",
                "phone": "Неизвестно"
            },
            {
                "category": "маникюрный",
                "name": "Ногтевая студия art_nails_kamila",
                "lat": 39.6461395,
                "lon": 66.9711804,
                "address": "1-й проезд Дониёрбека 1, Samarkand, Самаркандская область, Узбекистан",
                "services": "Маникюрный",
                "cost": "Неизвестно",
                "hours": "Open now",
                "phone": "Неизвестно"
            },
            {
                "category": "маникюрный",
                "name": "Салон красата",
                "lat": 39.6460645,
                "lon": 66.9243687,
                "address": "JWWF+CPC Korzinka+ Atlas mall, Samarkand, Samarqand Region, Узбекистан",
                "services": "Маникюрный",
                "cost": "Неизвестно",
                "hours": "Open now",
                "phone": "Неизвестно"
            },
            {
                "category": "маникюрный",
                "name": "Xanifa wedding salon manicure",
                "lat": 39.6410214,
                "lon": 66.9586336,
                "address": "JXR5+G87, Samarqand, Samarqand viloyati, Узбекистан",
                "services": "Маникюрный",
                "cost": "Неизвестно",
                "hours": "Open now",
                "phone": "Неизвестно"
            },
            {
                "category": "маникюрный",
                "name": "Salon Sharqona",
                "lat": 39.5957374,
                "lon": 67.00141839999999,
                "address": "H2W2+7HV, Samarqand, Samarqand viloyati, Узбекистан",
                "services": "Маникюрный",
                "cost": "Неизвестно",
                "hours": "Open now",
                "phone": "Неизвестно"
            },
            {
                "category": "маникюрный",
                "name": "Monica Салон Красоты",
                "lat": 39.66769590000001,
                "lon": 66.9262584,
                "address": "Elitnyy Dom, Spitamen-Shokh Ulitsa 100, Samarkand, Samarqand Region, Узбекистан",
                "services": "Маникюрный",
                "cost": "Неизвестно",
                "hours": "Open now",
                "phone": "Неизвестно"
            },
            {
                "category": "маникюрный",
                "name": "Noza",
                "lat": 39.6558317,
                "lon": 66.960077,
                "address": "Улица Юсуфа Хамадани 74, 140100, Samarkand, Samarqand Region, Узбекистан",
                "services": "Маникюрный",
                "cost": "Неизвестно",
                "hours": "Open now",
                "phone": "Неизвестно"
            },
            {
                "category": "маникюрный",
                "name": "ALOHA",
                "lat": 39.6424052,
                "lon": 66.9549838,
                "address": "ул. Акбара Отаходжаева 13, Samarkand, Самаркандская область, Узбекистан",
                "services": "Маникюрный",
                "cost": "Неизвестно",
                "hours": "Open now",
                "phone": "Неизвестно"
            },
            {
                "category": "маникюрный",
                "name": "dilly_nails",
                "lat": 39.6558419,
                "lon": 66.9636441,
                "address": "1-kuksaray square business center 12, Samarkand, Узбекистан",
                "services": "Маникюрный",
                "cost": "Неизвестно",
                "hours": "Open now",
                "phone": "Неизвестно"
            },
            {
                "category": "маникюрный",
                "name": "Кабинет маникюра",
                "lat": 39.7216068,
                "lon": 66.9330557,
                "address": "PWCM+J6V Мфй Корасу, Samarkand, Самаркандская область, Узбекистан",
                "services": "Маникюрный",
                "cost": "Неизвестно",
                "hours": "Open now",
                "phone": "Неизвестно"
            },
            {
                "category": "маникюрный",
                "name": "Milana (gozallik saloni) салон красоты",
                "lat": 39.6498136,
                "lon": 66.9526726,
                "address": "JXX3+W34, Samarqand, Samarqand viloyati, Узбекистан",
                "services": "Маникюрный",
                "cost": "Неизвестно",
                "hours": "Open now",
                "phone": "Неизвестно"
            },
            {
                "category": "маникюрный",
                "name": "DAZZLE KOSMETOLOG",
                "lat": 39.680776,
                "lon": 66.9327309,
                "address": "Rudakiy ko'chasi, Samarqand, Samarqand viloyati, Узбекистан",
                "services": "Маникюрный",
                "cost": "Неизвестно",
                "hours": "Open now",
                "phone": "Неизвестно"
            },
            {
                "category": "маникюрный",
                "name": "Gyuna салон красоты, мужская/женская парикмахерская",
                "lat": 39.6525992,
                "lon": 66.961586,
                "address": "улица Бустонсарай, Samarkand, Самаркандская область, Узбекистан",
                "services": "Маникюрный",
                "cost": "Неизвестно",
                "hours": "Open now",
                "phone": "Неизвестно"
            },
            {
                "category": "маникюрный",
                "name": "O'raz 857 damas",
                "lat": 40.7382252,
                "lon": 69.1561772,
                "address": "P5Q4+7F, Samarkand, Tashkent Region, Узбекистан",
                "services": "Маникюрный",
                "cost": "Неизвестно",
                "hours": "Open now",
                "phone": "Неизвестно"
            },
            {
                "category": "маникюрный",
                "name": "beauty salon BEYONCE",
                "lat": 39.6553389,
                "lon": 66.9152962,
                "address": "MW48+44M, улица Али Кушчи, Samarqand, Samarqand viloyati, Узбекистан",
                "services": "Маникюрный",
                "cost": "Неизвестно",
                "hours": "Open now",
                "phone": "Неизвестно"
            },
            {
                "category": "маникюрный",
                "name": "Beauty Studio",
                "lat": 39.6762908,
                "lon": 66.93822,
                "address": "MWGQ+G79, Samarqand, Samarqand viloyati, Узбекистан",
                "services": "Маникюрный",
                "cost": "Неизвестно",
                "hours": "Open now",
                "phone": "Неизвестно"
            },
            {
                "category": "маникюрный",
                "name": "TUNAFORD",
                "lat": 39.6552016,
                "lon": 66.9549583,
                "address": "Samarkand, Самаркандская область, Узбекистан",
                "services": "Маникюрный",
                "cost": "Неизвестно",
                "hours": "Open now",
                "phone": "Неизвестно"
            },
            {
                "category": "маникюрный",
                "name": "Beauty Salom",
                "lat": 39.6844954,
                "lon": 66.9826913,
                "address": "MXMM+Q3W, Samarqand, Samarqand viloyati, Узбекистан",
                "services": "Маникюрный",
                "cost": "Неизвестно",
                "hours": "Open now",
                "phone": "Неизвестно"
            },
            {
                "category": "маникюрный",
                "name": "Samarkand",
                "lat": 39.6338349,
                "lon": 66.9423223,
                "address": "JWMR+GWP Самгаси, Samarkand, Самаркандская область, Узбекистан",
                "services": "Маникюрный",
                "cost": "Неизвестно",
                "hours": "Open now",
                "phone": "Неизвестно"
            },
            {
                "category": "маникюрный",
                "name": "Студия красоты \"Лорен\"",
                "lat": 39.6558866,
                "lon": 66.90784049999999,
                "address": "улица Али Кушчи А24, Samarkand, Узбекистан",
                "services": "Маникюрный",
                "cost": "Неизвестно",
                "hours": "Open now",
                "phone": "Неизвестно"
            },
            {
                "category": "маникюрный",
                "name": "Nigina_Salon",
                "lat": 39.681171,
                "lon": 66.93350989999999,
                "address": "Гагарин кўчаси 16, Samarqand, Samarqand viloyati, Узбекистан",
                "services": "Маникюрный",
                "cost": "Неизвестно",
                "hours": "Open now",
                "phone": "Неизвестно"
            },
            {
                "category": "маникюрный",
                "name": "Go'zallik saloni Shukrona/Салон красоты Шукрона",
                "lat": 39.6968875,
                "lon": 66.8749201,
                "address": "MVWF+QW5 Yqori Qaynama, Diydor ko'chasi, Samarkand, Самаркандская область, Узбекистан",
                "services": "Маникюрный",
                "cost": "Неизвестно",
                "hours": "Open now",
                "phone": "Неизвестно"
            },
            {
                "category": "маникюрный",
                "name": "Guzallik saloni",
                "lat": 39.4198319,
                "lon": 67.0496795,
                "address": "C2CX+7F4, Beshkal, Samarqand Region, Узбекистан",
                "services": "Маникюрный",
                "cost": "Неизвестно",
                "hours": "Open now",
                "phone": "Неизвестно"
            },
            {
                "category": "маникюрный",
                "name": "Kosmetologia by Matluba",
                "lat": 39.6667864,
                "lon": 66.9258864,
                "address": "Spitamen-Shokh Ulitsa 100, Samarkand, Samarqand Region, Узбекистан",
                "services": "Маникюрный",
                "cost": "Неизвестно",
                "hours": "Open now",
                "phone": "Неизвестно"
            },
            {
                "category": "маникюрный",
                "name": "Sister Beauty Salon",
                "lat": 39.6553605,
                "lon": 66.91227830000001,
                "address": "A 1, Ali Kushchi St 13, 100500, Samarkand, Samarqand Region, Узбекистан",
                "services": "Маникюрный",
                "cost": "Неизвестно",
                "hours": "Open now",
                "phone": "Неизвестно"
            },
            {
                "category": "маникюрный",
                "name": "Salon PARADISE",
                "lat": 39.6763381,
                "lon": 66.9379384,
                "address": "MWGQ+G5M, Samarqand, Samarqand viloyati, Узбекистан",
                "services": "Маникюрный",
                "cost": "Неизвестно",
                "hours": "Open now",
                "phone": "Неизвестно"
            },
            {
                "category": "маникюрный",
                "name": "Салон красоты. Guzallik saloni.",
                "lat": 39.675257,
                "lon": 66.92736119999999,
                "address": "MWGG+4W5, Al Khorazmiy St, Samarkand, Samarqand Region, Узбекистан",
                "services": "Маникюрный",
                "cost": "Неизвестно",
                "hours": "Open now",
                "phone": "Неизвестно"
            }
        ],
        "Bukhara": [
            {
                "category": "салон",
                "name": "SALON “ANIS”",
                "lat": 39.765025,
                "lon": 64.42701100000001,
                "address": "Sadriddina Ayni 5a, Bukhara, Бухара, Узбекистан",
                "services": "Салон",
                "cost": "Неизвестно",
                "hours": "Open now",
                "phone": "Неизвестно"
            },
            {
                "category": "салон",
                "name": "Kimmy Lab",
                "lat": 41.3201792,
                "lon": 69.28421449999999,
                "address": "проезд Олой Бозори, 63, 100017, Tashkent, Узбекистан",
                "services": "Салон",
                "cost": "Неизвестно",
                "hours": "Open now",
                "phone": "Неизвестно"
            },
            {
                "category": "салон",
                "name": "Шануар",
                "lat": 39.7663062,
                "lon": 64.4280811,
                "address": "Ibrokhim Muminov Str., Buxoro, Buxoro Viloyati, Узбекистан",
                "services": "Салон",
                "cost": "Неизвестно",
                "hours": "Open now",
                "phone": "Неизвестно"
            },
            {
                "category": "салон",
                "name": "Fashion-M",
                "lat": 39.7698866,
                "lon": 64.4277678,
                "address": "улица Хамзы 5Д, Узбекистан",
                "services": "Салон",
                "cost": "Неизвестно",
                "hours": "Open now",
                "phone": "Неизвестно"
            },
            {
                "category": "салон",
                "name": "ALady beauty salon - Салон красоты",
                "lat": 41.3040484,
                "lon": 69.31829069999999,
                "address": "Махтумкули 79, 100071, Tashkent, Узбекистан",
                "services": "Салон",
                "cost": "Неизвестно",
                "hours": "Open now",
                "phone": "Неизвестно"
            },
            {
                "category": "салон",
                "name": "DermaСenter",
                "lat": 41.32406510000001,
                "lon": 69.2296384,
                "address": "Шайхантахурский район Гулобод 269-22, 100020, Tashkent, Узбекистан",
                "services": "Салон",
                "cost": "Неизвестно",
                "hours": "Open now",
                "phone": "Неизвестно"
            },
            {
                "category": "салон",
                "name": "Салон Красоты",
                "lat": 41.3114942,
                "lon": 69.32746879999999,
                "address": "Мавлоно Риёзий 5, Tashkent, Узбекистан",
                "services": "Салон",
                "cost": "Неизвестно",
                "hours": "Open now",
                "phone": "Неизвестно"
            },
            {
                "category": "салон",
                "name": "Мафтуна Салон красоты",
                "lat": 39.7612549,
                "lon": 64.431534,
                "address": "Ulitsa Mustakillik 21, Bukhara, Bukhara Region, Узбекистан",
                "services": "Салон",
                "cost": "Неизвестно",
                "hours": "Open now",
                "phone": "Неизвестно"
            },
            {
                "category": "салон",
                "name": "Re-Fresh Beauty Studio",
                "lat": 39.7463114,
                "lon": 64.4018842,
                "address": "PCW2+JQQ, Buxoro, Buxoro Viloyati, Узбекистан",
                "services": "Салон",
                "cost": "Неизвестно",
                "hours": "Open now",
                "phone": "Неизвестно"
            },
            {
                "category": "салон",
                "name": "Epil studio Bukhara Лазерная эпиляция",
                "lat": 39.7698371,
                "lon": 64.42777579999999,
                "address": "улица Хамзы 5Д, Bukhara, Бухара, Узбекистан",
                "services": "Салон",
                "cost": "Неизвестно",
                "hours": "Open now",
                "phone": "Неизвестно"
            },
            {
                "category": "салон",
                "name": "Dior beauty salon",
                "lat": 39.7804252,
                "lon": 64.4339706,
                "address": "QCJM+5HH, Sulaymon Murodov St, Bukhara, Bukhara Region, Узбекистан",
                "services": "Салон",
                "cost": "Неизвестно",
                "hours": "Open now",
                "phone": "Неизвестно"
            },
            {
                "category": "салон",
                "name": "F.EVA Beauty salon",
                "lat": 39.7722022,
                "lon": 64.4315743,
                "address": "QCCJ+VMC, Ulitsa Mustakillik, Bukhara, Bukhara Region, Узбекистан",
                "services": "Салон",
                "cost": "Неизвестно",
                "hours": "Open now",
                "phone": "Неизвестно"
            },
            {
                "category": "салон",
                "name": "The LOOK Beauty Studio",
                "lat": 41.2188344,
                "lon": 69.2223365,
                "address": "Сергели-8 Шокир-арик 2 уй, 100085, Tashkent, Узбекистан",
                "services": "Салон",
                "cost": "Неизвестно",
                "hours": "Open now",
                "phone": "Неизвестно"
            },
            {
                "category": "салон",
                "name": "Ego Beauty salon",
                "lat": 41.2874382,
                "lon": 69.23013949999999,
                "address": "Чиланзар 1 14, Tashkent, Узбекистан",
                "services": "Салон",
                "cost": "Неизвестно",
                "hours": "Open now",
                "phone": "Неизвестно"
            },
            {
                "category": "салон",
                "name": "Салон красоты Гули",
                "lat": 41.27511519999999,
                "lon": 69.21467620000001,
                "address": "Ташкент Чиланзарский район ул Чиланзарский 83 Ташкент Чиланзарский, Узбекистан",
                "services": "Салон",
                "cost": "Неизвестно",
                "hours": "Open now",
                "phone": "Неизвестно"
            },
            {
                "category": "салон",
                "name": "Gulrux Beauty salon",
                "lat": 39.7550726,
                "lon": 64.43064820000001,
                "address": "QC4J+26H, Qayum Murtazoev ko'chasi, Buxoro, Buxoro Viloyati, Узбекистан",
                "services": "Салон",
                "cost": "Неизвестно",
                "hours": "Open now",
                "phone": "Неизвестно"
            },
            {
                "category": "салон",
                "name": "Soho beauty club studio",
                "lat": 41.3241075,
                "lon": 69.29823499999999,
                "address": "улица Кари Ниёзий 61, 100093, Тоshkent, Toshkent, Узбекистан",
                "services": "Салон",
                "cost": "Неизвестно",
                "hours": "Open now",
                "phone": "Неизвестно"
            },
            {
                "category": "салон",
                "name": "Салон красоты Bek",
                "lat": 41.2725276,
                "lon": 69.1828053,
                "address": "Ташкент чилонзар-19кв дом 41/1, Tashkent, Узбекистан",
                "services": "Салон",
                "cost": "Неизвестно",
                "hours": "Open now",
                "phone": "Неизвестно"
            },
            {
                "category": "салон",
                "name": "Naily daily",
                "lat": 41.3193217,
                "lon": 69.28772300000001,
                "address": "Проезд Олой Бозори, 24, 100007, Tashkent, Tashkent Region, Узбекистан",
                "services": "Салон",
                "cost": "Неизвестно",
                "hours": "Open now",
                "phone": "Неизвестно"
            },
            {
                "category": "салон",
                "name": "NNN",
                "lat": 41.2775834,
                "lon": 69.2444625,
                "address": "(Шота Руставели) 78А, Shota Rustaveli ko'chasi, 100100, Tashkent, Узбекистан",
                "services": "Салон",
                "cost": "Неизвестно",
                "hours": "Open now",
                "phone": "Неизвестно"
            },
            {
                "category": "салон",
                "name": "Podo&Nails",
                "lat": 39.7674727,
                "lon": 64.4146323,
                "address": "QC87+XVJ, Nomozgokh Str., Buxoro, Buxoro Viloyati, Узбекистан",
                "services": "Салон",
                "cost": "Неизвестно",
                "hours": "Open now",
                "phone": "Неизвестно"
            },
            {
                "category": "салон",
                "name": "ФЕРИДЕ salon",
                "lat": 39.8080028,
                "lon": 64.4212762,
                "address": "RC5C+5GV, A-380, Bukhara, Bukhara Region, Узбекистан",
                "services": "Салон",
                "cost": "Неизвестно",
                "hours": "Open now",
                "phone": "Неизвестно"
            },
            {
                "category": "салон",
                "name": "HairBoss - Лазерная эпиляция Бухара",
                "lat": 39.7695812,
                "lon": 64.4498973,
                "address": "Ул. Накшбанд 6, Buxoro, Buxoro Viloyati, Узбекистан",
                "services": "Салон",
                "cost": "Неизвестно",
                "hours": "Open now",
                "phone": "Неизвестно"
            },
            {
                "category": "салон",
                "name": "Lee&An Beauty Salon",
                "lat": 41.29475660000001,
                "lon": 69.2729816,
                "address": "Миробод 30, 100015, Tashkent, Узбекистан",
                "services": "Салон",
                "cost": "Неизвестно",
                "hours": "Open now",
                "phone": "Неизвестно"
            },
            {
                "category": "салон",
                "name": "Конфетти — салон красоты",
                "lat": 41.3710501,
                "lon": 69.2933656,
                "address": "Юнусабад 11 квартал, между домами 52 и 60 Ташкент, 100037, Узбекистан",
                "services": "Салон",
                "cost": "Неизвестно",
                "hours": "Open now",
                "phone": "Неизвестно"
            },
            {
                "category": "салон",
                "name": "Express Nails",
                "lat": 41.3072392,
                "lon": 69.2693798,
                "address": "д, Chimkent Street 1, Tashkent, Узбекистан",
                "services": "Салон",
                "cost": "Неизвестно",
                "hours": "Open now",
                "phone": "Неизвестно"
            },
            {
                "category": "салон",
                "name": "Parizod salon",
                "lat": 39.7820055,
                "lon": 64.4010382,
                "address": "QCJ2+RC3, Ulitsa M.karimova, Bukhara, Bukhara Region, Узбекистан",
                "services": "Салон",
                "cost": "Неизвестно",
                "hours": "Closed",
                "phone": "Неизвестно"
            },
            {
                "category": "салон",
                "name": "Салон красоты Kumush",
                "lat": 41.2806016,
                "lon": 69.2051534,
                "address": "Дом №16, квартира №38, 100097, Tashkent, Узбекистан",
                "services": "Салон",
                "cost": "Неизвестно",
                "hours": "Open now",
                "phone": "Неизвестно"
            },
            {
                "category": "салон",
                "name": "Beauty life",
                "lat": 39.7512516,
                "lon": 64.42834920000001,
                "address": "QC2H+G84, Unnamed Road, Bukhara, Узбекистан",
                "services": "Салон",
                "cost": "Неизвестно",
                "hours": "Open now",
                "phone": "Неизвестно"
            },
            {
                "category": "салон",
                "name": "EXPERT BEAUTY",
                "lat": 41.2848492,
                "lon": 69.257967,
                "address": "Makhmud Tarabi Ko'chasi 24, 100100, Тоshkent, Toshkent, Узбекистан",
                "services": "Салон",
                "cost": "Неизвестно",
                "hours": "Open now",
                "phone": "Неизвестно"
            },
            {
                "category": "салон",
                "name": "Mira salon",
                "lat": 39.7494386,
                "lon": 64.4386426,
                "address": "PCXQ+QFC, Buxoro, Buxoro Viloyati, Узбекистан",
                "services": "Салон",
                "cost": "Неизвестно",
                "hours": "Open now",
                "phone": "Неизвестно"
            },
            {
                "category": "салон",
                "name": "FOR ME beauty space",
                "lat": 41.3140293,
                "lon": 69.29359130000002,
                "address": "Ulitsa Makhatmy Gandi 14, 100047, Tashkent, Узбекистан",
                "services": "Салон",
                "cost": "Неизвестно",
                "hours": "Open now",
                "phone": "Неизвестно"
            },
            {
                "category": "салон",
                "name": "Mishel Beauty Salon",
                "lat": 41.3275134,
                "lon": 69.251396,
                "address": "87H2+2H2, Tashkent, Узбекистан",
                "services": "Салон",
                "cost": "Неизвестно",
                "hours": "Open now",
                "phone": "Неизвестно"
            },
            {
                "category": "салон",
                "name": "Салон красоты \"ОЛЕЧКА\"",
                "lat": 41.2761359,
                "lon": 69.201176,
                "address": "Korzinka.uz - integro - Чиланзар, дом 11, Bunyodkor Avenue 52, 100097, Tashkent, Узбекистан",
                "services": "Салон",
                "cost": "Неизвестно",
                "hours": "Open now",
                "phone": "Неизвестно"
            },
            {
                "category": "салон",
                "name": "ZNails",
                "lat": 41.2799614,
                "lon": 69.197104,
                "address": "Узбекистан, Ташкент, Чиланзарский район, 10, Little Ring Road 17, 100123, Tashkent, Узбекистан",
                "services": "Салон",
                "cost": "Неизвестно",
                "hours": "Open now",
                "phone": "Неизвестно"
            },
            {
                "category": "салон",
                "name": "Spa Sauna Kochevnik",
                "lat": 39.7723702,
                "lon": 64.4345132,
                "address": "Bakhowuddin Nakshband street, Узбекистан",
                "services": "Салон",
                "cost": "Неизвестно",
                "hours": "Open now",
                "phone": "Неизвестно"
            },
            {
                "category": "салон",
                "name": "Estel beauty",
                "lat": 39.7628615,
                "lon": 64.4277183,
                "address": "Muhammad Iqbol ko'chasi 308, 200100, Buxoro, Buxoro Viloyati, Узбекистан",
                "services": "Салон",
                "cost": "Неизвестно",
                "hours": "Open now",
                "phone": "Неизвестно"
            },
            {
                "category": "салон",
                "name": "Косметолог в Ташкенте",
                "lat": 41.3226394,
                "lon": 69.282758,
                "address": "Амир Темур шоҳ кўчаси 60, Тоshkent, Toshkent, Узбекистан",
                "services": "Салон",
                "cost": "Неизвестно",
                "hours": "Open now",
                "phone": "Неизвестно"
            },
            {
                "category": "салон",
                "name": "Beauty Studio FLAMINGO",
                "lat": 41.2272567,
                "lon": 69.2079807,
                "address": "Сергелийский район, Массив Сергели-5, 50 Ташкент, 100085, Узбекистан",
                "services": "Салон",
                "cost": "Неизвестно",
                "hours": "Open now",
                "phone": "Неизвестно"
            },
            {
                "category": "салон",
                "name": "Lika nail",
                "lat": 39.7360136,
                "lon": 64.4355952,
                "address": "Ulitsa Alpamysh 2, 200100, Bukhara, Bukhara Region, Узбекистан",
                "services": "Салон",
                "cost": "Неизвестно",
                "hours": "Open now",
                "phone": "Неизвестно"
            },
            {
                "category": "салон",
                "name": "SB Beauty Lab",
                "lat": 41.2939116,
                "lon": 69.2760413,
                "address": "Массив госпитальный, 4, Tashkent, Узбекистан",
                "services": "Салон",
                "cost": "Неизвестно",
                "hours": "Open now",
                "phone": "Неизвестно"
            },
            {
                "category": "салон",
                "name": "Косметолог в Ташкенте Врач",
                "lat": 41.3151582,
                "lon": 69.3276163,
                "address": "Оздоровительный комплекс \"Women&kids, Parkent Street 131, 100085, Tashkent, Узбекистан",
                "services": "Салон",
                "cost": "Неизвестно",
                "hours": "Open now",
                "phone": "Неизвестно"
            },
            {
                "category": "салон",
                "name": "Monarch Aesthetic Center",
                "lat": 41.285099,
                "lon": 69.2335173,
                "address": "Arnasay ko'chasi 7, 100115, Тоshkent, Toshkent, Узбекистан",
                "services": "Салон",
                "cost": "Неизвестно",
                "hours": "Open now",
                "phone": "Неизвестно"
            },
            {
                "category": "салон",
                "name": "Beauty Studio",
                "lat": 41.263046,
                "lon": 69.22310999999999,
                "address": "Малая кольцевая дорога, Кичик халка йули 8, 100022, Tashkent, Узбекистан",
                "services": "Салон",
                "cost": "Неизвестно",
                "hours": "Open now",
                "phone": "Неизвестно"
            },
            {
                "category": "салон",
                "name": "Salon _P_E_R_S_O_N_A",
                "lat": 39.7685565,
                "lon": 64.4545337,
                "address": "QF93+CRF, Buxoro, Buxoro Viloyati, Узбекистан",
                "services": "Салон",
                "cost": "Неизвестно",
                "hours": "Open now",
                "phone": "Неизвестно"
            },
            {
                "category": "салон",
                "name": "Sevda lashes",
                "lat": 39.750104,
                "lon": 64.4039849,
                "address": "QC23+2HX, Ulitsa Namozgokh, Bukhara, Bukhara Region, Узбекистан",
                "services": "Салон",
                "cost": "Неизвестно",
                "hours": "Open now",
                "phone": "Неизвестно"
            },
            {
                "category": "салон",
                "name": "Салон Шанель",
                "lat": 41.3304553,
                "lon": 69.2507985,
                "address": "87J2+58M, Unnamed Road, Tashkent, Узбекистан",
                "services": "Салон",
                "cost": "Неизвестно",
                "hours": "Open now",
                "phone": "Неизвестно"
            },
            {
                "category": "салон",
                "name": "Kimmy Lab",
                "lat": 41.30525859999999,
                "lon": 69.27347759999999,
                "address": "ул. Чимкент д.21, 100029, Tashkent, Узбекистан",
                "services": "Салон",
                "cost": "Неизвестно",
                "hours": "Open now",
                "phone": "Неизвестно"
            },
            {
                "category": "салон",
                "name": "Салон красоты Luna",
                "lat": 41.2952502,
                "lon": 69.21583269999999,
                "address": "со стороны дороги, 1-Y, Чиланзор, 5-й квартал, 25, вход, Tashkent, Узбекистан",
                "services": "Салон",
                "cost": "Неизвестно",
                "hours": "Open now",
                "phone": "Неизвестно"
            },
            {
                "category": "салон",
                "name": "Салон красоты \"Люция\"",
                "lat": 41.3577654,
                "lon": 69.38373729999999,
                "address": "Yuzrabot ko'chasi, Тоshkent, Toshkent, Узбекистан",
                "services": "Салон",
                "cost": "Неизвестно",
                "hours": "Open now",
                "phone": "Неизвестно"
            },
            {
                "category": "салон",
                "name": "Parvina Salon N°321",
                "lat": 39.7795661,
                "lon": 64.40245589999999,
                "address": "QCH2+RXG, Buxoro, Buxoro Viloyati, Узбекистан",
                "services": "Салон",
                "cost": "Неизвестно",
                "hours": "Open now",
                "phone": "Неизвестно"
            },
            {
                "category": "салон",
                "name": "Кружева салон красоты",
                "lat": 41.3141983,
                "lon": 69.292187,
                "address": "24, Tashkent, Узбекистан",
                "services": "Салон",
                "cost": "Неизвестно",
                "hours": "Open now",
                "phone": "Неизвестно"
            },
            {
                "category": "салон",
                "name": "Салон красоты Almira style",
                "lat": 41.3316296,
                "lon": 69.2454338,
                "address": "86JW+M53, Unnamed Road, Tashkent, Узбекистан",
                "services": "Салон",
                "cost": "Неизвестно",
                "hours": "Open now",
                "phone": "Неизвестно"
            },
            {
                "category": "салон",
                "name": "Dessange",
                "lat": 41.3141066,
                "lon": 69.2937924,
                "address": "2 этаж, Khamid Alimdjan Street 14, Tashkent, Узбекистан",
                "services": "Салон",
                "cost": "Неизвестно",
                "hours": "Open now",
                "phone": "Неизвестно"
            },
            {
                "category": "салон",
                "name": "Manor Spa - массаж в Ташкенте",
                "lat": 41.2965715,
                "lon": 69.2818276,
                "address": "Taras Shevchenko ko'chasi 23, Тоshkent, Toshkent, Узбекистан",
                "services": "Салон",
                "cost": "Неизвестно",
                "hours": "Open now",
                "phone": "Неизвестно"
            },
            {
                "category": "салон",
                "name": "Сальма-Николь Студия Красоты",
                "lat": 41.3046382,
                "lon": 69.2629776,
                "address": "8737+V55, Ташкент, Radzhabi Street, 3, Узбекистан",
                "services": "Салон",
                "cost": "Неизвестно",
                "hours": "Open now",
                "phone": "Неизвестно"
            },
            {
                "category": "салон",
                "name": "Epil_beautystudio ЛАЗЕРНАЯ ЭПИЛЯЦИЯ В ТАШКЕНТЕ",
                "lat": 41.3092326,
                "lon": 69.3353673,
                "address": "176 дом, Паркетский, 4-й проезд Тахтапуль, Тоshkent, Узбекистан",
                "services": "Салон",
                "cost": "Неизвестно",
                "hours": "Open now",
                "phone": "Неизвестно"
            },
            {
                "category": "салон",
                "name": "Zara beauty",
                "lat": 39.7700135,
                "lon": 64.4293174,
                "address": "Otaboy Eshonov Str. 12, 200100, Buxoro, Buxoro Viloyati, Узбекистан",
                "services": "Салон",
                "cost": "Неизвестно",
                "hours": "Open now",
                "phone": "Неизвестно"
            },
            {
                "category": "салон",
                "name": "Mary Ann",
                "lat": 39.7525521,
                "lon": 64.4250462,
                "address": "К. Муртазаев13/10д, 200100, Узбекистан",
                "services": "Салон",
                "cost": "Неизвестно",
                "hours": "Open now",
                "phone": "Неизвестно"
            },
            {
                "category": "салон",
                "name": "MIO Beauty",
                "lat": 41.3085058,
                "lon": 69.1652136,
                "address": "Журжоний МФЙ, город, Замахшарий кучаси 2-уй, 100106, Tashkent, Узбекистан",
                "services": "Салон",
                "cost": "Неизвестно",
                "hours": "Open now",
                "phone": "Неизвестно"
            },
            {
                "category": "спа",
                "name": "AQUAMARINE SPA and POOL",
                "lat": 39.7616555,
                "lon": 64.426517,
                "address": "М. Икбол 7, 200100, Узбекистан",
                "services": "Спа",
                "cost": "Неизвестно",
                "hours": "Open now",
                "phone": "Неизвестно"
            },
            {
                "category": "спа",
                "name": "Spa Sauna Kochevnik",
                "lat": 39.7723702,
                "lon": 64.4345132,
                "address": "Bakhowuddin Nakshband street, Узбекистан",
                "services": "Спа",
                "cost": "Неизвестно",
                "hours": "Open now",
                "phone": "Неизвестно"
            },
            {
                "category": "спа",
                "name": "Tarika SPA",
                "lat": 39.7747903,
                "lon": 64.4170582,
                "address": "Khakikat Str. 53, 200100, Buxoro, Buxoro Viloyati, Узбекистан",
                "services": "Спа",
                "cost": "Неизвестно",
                "hours": "Open now",
                "phone": "Неизвестно"
            },
            {
                "category": "спа",
                "name": "Спа ташкент Seven Day",
                "lat": 41.2894031,
                "lon": 69.201996,
                "address": "г. Ташкент, Чиланзарский р-н, ул. Чупон ота, рядом c 55-ым домом Ташкент Ташкент, 100003, Узбекистан",
                "services": "Спа",
                "cost": "Неизвестно",
                "hours": "Open now",
                "phone": "Неизвестно"
            },
            {
                "category": "спа",
                "name": "SPA salon Tonus",
                "lat": 41.2874165,
                "lon": 69.2728912,
                "address": "г. Ташкент Мирабадский район ул. Нукусская 79, Почтовый индекс, Nukus Street, 100060, Tashkent, Узбекистан",
                "services": "Спа",
                "cost": "Неизвестно",
                "hours": "Open now",
                "phone": "Неизвестно"
            },
            {
                "category": "спа",
                "name": "Сауна ОАЗИС sauna Oasis",
                "lat": 39.7724761,
                "lon": 64.4343883,
                "address": "Улица Б.Накшбад, Ulitsa Bakhauddina Nakshbandi, 200100, Bukhara, Узбекистан",
                "services": "Спа",
                "cost": "Неизвестно",
                "hours": "Open now",
                "phone": "Неизвестно"
            },
            {
                "category": "спа",
                "name": "ASALDUBAY МАССАЖ",
                "lat": 41.2783506,
                "lon": 69.17816499999999,
                "address": "26-й квартал, 15 массив Чиланзар, Tashkent, Узбекистан",
                "services": "Спа",
                "cost": "Неизвестно",
                "hours": "Open now",
                "phone": "Неизвестно"
            },
            {
                "category": "спа",
                "name": "Massage Magiya",
                "lat": 39.7620538,
                "lon": 64.4356474,
                "address": "Садридинна Айни, 200100, Bukhara, Bukhara Region, Узбекистан",
                "services": "Спа",
                "cost": "Неизвестно",
                "hours": "Open now",
                "phone": "Неизвестно"
            },
            {
                "category": "спа",
                "name": "Manor Spa - массаж в Ташкенте",
                "lat": 41.2965715,
                "lon": 69.2818276,
                "address": "Taras Shevchenko ko'chasi 23, Тоshkent, Toshkent, Узбекистан",
                "services": "Спа",
                "cost": "Неизвестно",
                "hours": "Open now",
                "phone": "Неизвестно"
            },
            {
                "category": "спа",
                "name": "Wellness Complex Shans",
                "lat": 41.2964397,
                "lon": 69.2557765,
                "address": "58/10, Юсуф Хос Ходжиб, 100070, Tashkent, Узбекистан",
                "services": "Спа",
                "cost": "Неизвестно",
                "hours": "Open now",
                "phone": "Неизвестно"
            },
            {
                "category": "спа",
                "name": "Diamond Spa",
                "lat": 41.32924999999999,
                "lon": 69.28110869999999,
                "address": "Проспект Амира Темура, Бунёдкор проспект 122B, 100000, Tashkent, Узбекистан",
                "services": "Спа",
                "cost": "Неизвестно",
                "hours": "Open now",
                "phone": "Неизвестно"
            },
            {
                "category": "спа",
                "name": "PROMASSAGE.UZ",
                "lat": 41.29164249999999,
                "lon": 69.26014669999999,
                "address": "Кофейня B&B, Ориентир, Shota Rustaveli Street 30а/1, Tashkent, Узбекистан",
                "services": "Спа",
                "cost": "Неизвестно",
                "hours": "Open now",
                "phone": "Неизвестно"
            },
            {
                "category": "спа",
                "name": "Hammam Shahriston",
                "lat": 39.7750563,
                "lon": 64.4171477,
                "address": "Khakikat Str., Buxoro, Buxoro Viloyati, Узбекистан",
                "services": "Спа",
                "cost": "Неизвестно",
                "hours": "Open now",
                "phone": "Неизвестно"
            },
            {
                "category": "спа",
                "name": "Musea Thai massages & SPA",
                "lat": 41.2821176,
                "lon": 69.2661483,
                "address": "Яккасарайский район, 2 проезд Шамсиддин Кулала, 3, 100100, Tashkent, Узбекистан",
                "services": "Спа",
                "cost": "Неизвестно",
                "hours": "Open now",
                "phone": "Неизвестно"
            },
            {
                "category": "спа",
                "name": "Queen Spa",
                "lat": 41.2968532,
                "lon": 69.2738083,
                "address": "15, Tashkent, Узбекистан",
                "services": "Спа",
                "cost": "Неизвестно",
                "hours": "Open now",
                "phone": "Неизвестно"
            },
            {
                "category": "спа",
                "name": "Magic spa - массаж в Ташкенте",
                "lat": 41.2712867,
                "lon": 69.17560879999999,
                "address": "46,а, Zargarlik Street, 000122, Tashkent, Узбекистан",
                "services": "Спа",
                "cost": "Неизвестно",
                "hours": "Open now",
                "phone": "Неизвестно"
            },
            {
                "category": "спа",
                "name": "Спа центр \"Империя Пара\"",
                "lat": 41.3718314,
                "lon": 69.293685,
                "address": "Юнусабад, 11-квартал, ул. Ахмад Дониш, дом 56А Юнусабад, 11-квартал, ул. Ахмад Дониш, дом 56А, 100037, Tashkent, Узбекистан",
                "services": "Спа",
                "cost": "Неизвестно",
                "hours": "Open now",
                "phone": "Неизвестно"
            },
            {
                "category": "спа",
                "name": "Spa life",
                "lat": 41.2918558,
                "lon": 69.28294199999999,
                "address": "Ойбек 65, Tashkent, Узбекистан",
                "services": "Спа",
                "cost": "Неизвестно",
                "hours": "Open now",
                "phone": "Неизвестно"
            },
            {
                "category": "спа",
                "name": "Sauna Laguna",
                "lat": 39.7434271,
                "lon": 64.4176387,
                "address": "100200, Bukhara, Бухара, Узбекистан",
                "services": "Спа",
                "cost": "Неизвестно",
                "hours": "Open now",
                "phone": "Неизвестно"
            },
            {
                "category": "спа",
                "name": "Stomatologiya",
                "lat": 39.73843249999999,
                "lon": 64.4340209,
                "address": "PCQM+7MR, Buxoro, Buxoro Viloyati, Узбекистан",
                "services": "Спа",
                "cost": "Неизвестно",
                "hours": "Open now",
                "phone": "Неизвестно"
            },
            {
                "category": "спа",
                "name": "Массаж, Сауна - Spa Salon Sheikh",
                "lat": 41.3274578,
                "lon": 69.2875428,
                "address": "Osiyo ko'chasi 13, Тоshkent, Toshkent, Узбекистан",
                "services": "Спа",
                "cost": "Неизвестно",
                "hours": "Open now",
                "phone": "Неизвестно"
            },
            {
                "category": "спа",
                "name": "LOTUS",
                "lat": 41.3036278,
                "lon": 69.2893507,
                "address": "Sodiq Azimov ko'chasi 68, 100060, Тоshkent, Toshkent, Узбекистан",
                "services": "Спа",
                "cost": "Неизвестно",
                "hours": "Open now",
                "phone": "Неизвестно"
            },